station_name,latitude,longitude
(구)구판장,33.329705000000004,126.797965
(구)중문동주민센터,33.251085,126.43430000000001
(구)중앙파출소,33.24737,126.56071333333334
(구)화산초등학교,33.32626,126.79724999999999
1100고지휴게소,33.357820000000004,126.46301
1100도로입구,33.25159,126.43164
4.3평화공원,33.45111,126.62176
4.3평화공원입구,33.453109999999995,126.62009
6호광장,33.511030000000005,126.548915
911의원,33.540655,126.67823999999999
GM빌라,33.46668,126.52080000000001
KIS빌리지,33.269369999999995,126.27801
LH12단지,33.249925000000005,126.52289
LH아파트,33.24725,126.52281
L마트,33.2643,126.56003
NHF삼화1단지,33.51746,126.5821
NLCS제주,33.296530000000004,126.285395
S중앙병원,33.49289,126.471745
가마초등학교,33.306625,126.799975
가문동마을길,33.483549999999994,126.39578
가물개공원,33.524604999999994,126.584735
가시나물,33.471805,126.570045
가시농협,33.35266,126.771535
가시리,33.361395,126.76674
가시리동상동,33.353660000000005,126.77389500000001
가시리동하동,33.350195,126.773905
가시리사무소,33.35303,126.77152
가시리체육공원,33.35236999999999,126.77482499999999
가원,33.498635,126.56296499999999
가흥동,33.30735,126.80762999999999
각시물,33.32474,126.25972
갈왓,33.493485,126.45606000000001
감귤단지,33.30121,126.60923500000001
감귤박물관,33.27152,126.61061999999998
감귤유통센터,33.33222,126.809135
감귤작목반입구,33.534145,126.684515
감산리,33.259935,126.356975
감산리서동,33.256755,126.34908999999999
감산입구,33.26074,126.36216999999999
강다리,33.405855,126.888955
강정농협,33.23603,126.47827
강정새마을금고,33.236470000000004,126.47731
강정의례회관,33.238115,126.479675
강정천,33.233810000000005,126.486975
강정초등학교,33.235625,126.479935
강창학종합경기장,33.261700000000005,126.50145499999999
강화교,33.32455,126.79429
개법사,33.40432,126.33827
거로남쪽입구,33.504940000000005,126.561495
거로마을,33.50968,126.56079500000001
거로복지회관,33.508465,126.56096500000001
거로사거리,33.507329999999996,126.55619250000001
거로입구,33.509765,126.5593525
거린사슴전망대,33.307615,126.45485500000001
거문머들,33.256935,126.53422
거문오름입구,33.45263,126.709175
거물여,33.332225,126.8006
"거슨새미오름,안돌오름",33.44512,126.75687500000001
검은여입구,33.248145,126.5827
게이트볼장,33.494835,126.51975
견월교,33.423895,126.60818
경제통상진흥원,33.498975,126.540385
경흥농원,33.322964999999996,126.73818
계룡동,33.534009999999995,126.83367
계명동,33.485715,126.42671
계명동입구,33.48803,126.42665
계원동,33.4099,126.33395
고갠드르,33.254665,126.52414999999999
고근산,33.260405000000006,126.51383
고내리,33.462805,126.33847499999999
고내리애월119센터,33.46629,126.34943
고내포구,33.46719,126.337005
고도농원,33.28758,126.59351000000001
고래왓,33.24821,126.513495
고림동,33.374359999999996,126.284935
고망난돌입구,33.352955,126.858715
고산,33.30307,126.17942
고산1리,33.300940000000004,126.18026
고산1리(구출장소),33.306315,126.178765
고산1리육거리,33.30096,126.17948
고산2리전답동,33.29505,126.20397
고산농산물유통센터,33.298395,126.19180499999999
고산동산,33.49501,126.53379666666666
고산동산(광양방면),33.495540000000005,126.53291000000002
고산동산(아라방면),33.496,126.53228
고산문화의집,33.30022,126.18326499999999
고산우체국앞,33.3038,126.1796
고산환승정류장(고산1리),33.30073,126.18044
고산환승정류장(고산1리고산성당앞),33.3009,126.18043
고산환승정류장(종점),33.30093,126.17999
고상동,33.50854,126.6734
고성1리사무소,33.457945,126.41274999999999
고성1리종합운동장,33.458439999999996,126.41539
고성2리,33.43655,126.424095
고성리구성산농협,33.44798,126.91496
고성리노인회관,33.446685,126.9087
고성리성산농협,33.44611,126.91261000000002
고성리외왓,33.44555,126.41377
고성리장만이동산,33.445449999999994,126.900575
고성리제주은행,33.44907,126.915525
고성오일시장,33.45218,126.91409
고수동,33.327905,126.755665
고수동입구,33.32182,126.75685
고수동회관,33.32936,126.75631
고으니모르국립제주박물관,33.512609999999995,126.55096
고장낭밭,33.27431,126.59969000000001
고지교,33.48679,126.517195
고평동,33.474675,126.656435
고향모루,33.236414999999994,126.49837500000001
골물동입구,33.25095,126.33397
공무원연금공단,33.254505,126.51783499999999
공물,33.24055,126.51632
공업단지,33.29237,126.58178
공업단지입구,33.283815000000004,126.590355
공천포,33.265640000000005,126.64035
공항초소,33.5136,126.48446000000001
곽지모물,33.452439999999996,126.308835
곽지해수욕장,33.448315,126.307515
관광단지입구,33.2563,126.41467
관덕정,33.513075,126.52092
관동산,33.50653,126.63567
관음사,33.426514999999995,126.5578
관음사등산로입구,33.42245,126.54977
관전동,33.489329999999995,126.41962000000001
관통사,33.326925,126.8272
광대왓,33.247805,126.51724999999999
광령1리사무소,33.460935000000006,126.43982500000001
광령2리,33.45037,126.428955
광령2리사무소,33.44932,126.42912
광령2리입구,33.4594,126.430915
광령3리,33.45884,126.42416499999999
광령3리사무소,33.46344,126.423415
광령초등학교,33.460615000000004,126.436295
광석동,33.474545,126.40896000000001
광양,33.502215,126.52801
광양사거리,33.50047,126.5271
광지동,33.27642,126.709
광치기해변,33.451865,126.92351500000001
광평,33.48393,126.468245
광평고치동산,33.483630000000005,126.46392
광평교차로,33.33059,126.35501
광평동로,33.4823,126.47038
광평동로노형성당,33.48207,126.47042
광평리,33.3293,126.38198
교래리,33.42912333333334,126.67598666666667
교래리보건소,33.436454999999995,126.676445
교래분교,33.43638,126.67933500000001
교래사거리,33.433769999999996,126.67179250000001
교래입구,33.419304999999994,126.61670000000001
교래자연휴양림,33.44341,126.66617
구몰리동,33.42476,126.31557999999998
구산마을,33.483215,126.53805
구산마을입구,33.484155,126.53572
구삼일금고,33.2492,126.56168
구시장터,33.435179999999995,126.32503
구억리,33.27237,126.2789
구억리삼거리,33.27278,126.2794
구억리상동,33.278755000000004,126.283525
구억리옹기체험관,33.27407,126.27868
구엄리,33.47443,126.37621999999999
구엄포구,33.484065,126.377685
구오일시장,33.43531,126.32489
구좌보건소,33.51989,126.859755
구좌정수장,33.505045,126.772035
구좌중앙초등학교,33.551175,126.79878
구터미널,33.25203,126.56024
구한경의원앞,33.34396,126.182545
국립기상과학원,33.258035,126.517605
국립제주박물관,33.51248,126.54997
국민건강보험공단,33.254509999999996,126.50690500000002
국세공무원교육원공무원연금공단,33.2545,126.51789500000001
국세공무원교육원국토교통부인재개발원,33.25439,126.515525
국세공무원교육원생활관,33.255595,126.519295
국제교회,33.282495,126.278295
국제여객선터미널,33.524325000000005,126.54443
국학원,33.388215,126.373155
군모루,33.29215,126.72222
굴집터,33.400015,126.862965
굿밭거리,33.25740999999999,126.525005
귀덕1리,33.44351,126.29275
귀덕2리,33.437725,126.279775
귀덕3리,33.418535,126.29417500000001
귀덕새마을금고,33.439840000000004,126.282815
귀덕초등학교,33.44372,126.29413999999998
귀일중학교,33.481094999999996,126.40528499999999
그린카센터,33.316925,126.828615
극락사,33.456435,126.40686
근로복지공단,33.499845,126.54444999999998
금능농공단지,33.35906000000001,126.243365
금능농공단지입구,33.36262,126.24728999999999
금능리,33.38731,126.2323
금능블루하와이,33.381695,126.21939499999999
금능석물원,33.38597,126.226305
금능해수욕장,33.389505,126.23562000000001
금등리마을,33.361765000000005,126.19268
금백조로입구,33.44759,126.76497
금붕사,33.500704999999996,126.89065500000001
금빛신협,33.446165,126.30523500000001
금산,33.495189999999994,126.680045
금산목,33.55344,126.80488
금산학교마을,33.44369,126.32703000000001
금성리,33.44472999999999,126.30190999999999
금악,33.361999999999995,126.2928
금악리,33.36176714285714,126.29310999999998
금악보건진료소,33.35887,126.29651
금악입구,33.330690000000004,126.35414
금악초등학교,33.35719,126.29571
금천마을,33.478565,126.553455
김녕리,33.5543,126.74753000000001
김녕미로공원,33.536085,126.77248
김녕해수욕장,33.555995,126.7598
김녕환승정류장(김녕초등학교),33.554965,126.75126
김만덕기념관,33.515865,126.52997500000001
김영갑갤러리두모악,33.37198,126.856695
까끄래기오름,33.433840000000004,126.70555999999999
꽃동산,33.27942,126.58863999999998
꿈에그린아파트,33.281385,126.271975
낙선동,33.514610000000005,126.693475
낙천리,33.326015,126.227085
낙천폭낭거리,33.324185,126.22904
난산동동네,33.40210999999999,126.87572499999999
난산리노인복지회관,33.40098,126.87403
난산리사무소,33.401325,126.870935
난산앞동산,33.40155,126.87462
난산입구,33.38583,126.88054
난산입구(성산기상대),33.38602,126.88173
남광로입구,33.49251,126.53747
남광초등학교,33.49293,126.53768
남국사,33.46132,126.54968500000001
남국원(광양방면),33.47957,126.54388
남국원(아라방면),33.47971,126.54381
남군농협,33.2482,126.565
남내소,33.269645,126.62369
남녕고등학교,33.488040000000005,126.48311
남녕마트,33.489815,126.481855
남문,33.2526,126.52427499999999
남문동,33.39655,126.26349
남서광마을,33.499790000000004,126.52376
남서광마을입구,33.49968,126.52126
남성마을,33.242785,126.55420000000001
남성마을입구,33.247825000000006,126.55242
남양맨션,33.255880000000005,126.56799
남영농장,33.31497,126.73436
남용통상,33.29072,126.57892
남원1리사무소,33.27793,126.71432999999999
남원2리,33.295315,126.70783
남원2리복지회관,33.29322,126.70990499999999
남원농협신흥지소,33.302395,126.76707999999999
남원리월산동,33.291575,126.71064
남원생활체육관,33.27561,126.70612
남원읍사무소,33.279485,126.720385
"남원읍충혼묘지,물영아리",33.36019,126.69217
남원중학교,33.280680000000004,126.717585
남원취락구조,33.275054999999995,126.700255
남원포구입구,33.27879,126.71775
남원환승정류장(남원읍사무소),33.280575,126.72098
남조로검문소,33.46947,126.65958666666667
남조순오름입구,33.47735,126.49124
남주동,33.483865,126.408615
남주중고등학교,33.274640000000005,126.56612
남학교,33.463505,126.52673
남흘동,33.55539,126.743105
납읍리,33.43935666666666,126.32878333333333
납읍리사무소,33.439440000000005,126.32944
납읍리섯잣길,33.43689,126.32748000000001
내도동동마을,33.493165000000005,126.442425
내도동서마을,33.49404,126.43846500000001
내영굴,33.34564,126.78688500000001
노루생이삼거리,33.422685,126.49293
노루생태관찰원,33.44479,126.62742499999999
노리매,33.281105,126.287445
노형오거리,33.4858925,126.479895
노형우체국,33.48737,126.47779500000001
노형주공아파트,33.49064,126.47405499999999
노형초등학교,33.48362,126.47587
논오름,33.27423,126.333595
농굴왓입구,33.508070000000004,126.82635
농기구수리센터,33.329825,126.82161500000001
농림축산검역본부,33.509985,126.504685
농업기술원,33.260865,126.48658
농협보목지소,33.24323,126.5983
농협서부지점,33.25588,126.52432999999999
농협주유소,33.270709999999994,126.64693
농협지역본부,33.507895000000005,126.51994
농협하나로마트,33.33813,126.78471333333334
뉴경남호텔,33.24642,126.55891
"다랑쉬오름입구(남),손지오름",33.460274999999996,126.817125
다랑쉬오름입구(북),33.486015,126.829755
다호마을,33.50458,126.49625
다희연,33.487354999999994,126.70618999999999
달산봉입구,33.34318666666667,126.82640333333335
달샘마을,33.474464999999995,126.570055
답다니,33.25886,126.57978
당동,33.468495,126.38419
당동산,33.459954999999994,126.43350000000001
대기고등학교,33.491865000000004,126.59357
대동마을,33.49453,126.46379
대륜동주민센터,33.24848,126.51118999999998
대림2차아파트,33.478925000000004,126.488175
대림동,33.4992,126.75525
대림리사무소,33.422574999999995,126.281045
대림사거리,33.422169999999994,126.278285
대림아파트,33.416673333333335,126.53539333333333
대림입구,33.42853,126.27218500000001
대림입전동,33.42209,126.28344000000001
대림한숲빌라,33.25165,126.50598
대서리,33.96252,126.29429
대서리사무소,33.96284,126.29564
대섬입구,33.53577,126.625845
대성동,33.293105,126.67637500000001
대성목장,33.430795,126.747605
대수동,33.2398,126.233755
대신중학교,33.25607,126.505405
대용소천,33.48097,126.590205
대원마을,33.476470000000006,126.53461999999999
대원상동,33.274895,126.67023499999999
대원오등동입구,33.47748,126.54262
대유대림아파트,33.502425,126.55266
대전동,33.31385,126.70034
대정고등학교,33.23035,126.2619
대정농공단지,33.25734,126.229285
대정농공단지입구,33.24813,126.22032999999999
대정농협,33.22214,126.25226
대정서초등학교,33.231865,126.23821
대정읍다목적회관,33.22099,126.26702
대정읍사무소,33.22592,126.25171
대정초교후문,33.225660000000005,126.25627
대정초등학교,33.22478,126.25639
대정환승정류장(대정읍사무소),33.22591,126.25234
대진유토피아,33.34241,126.81477
대천동주민센터,33.250152500000006,126.47820999999999
대천환승정류장,33.43628,126.73682
대천환승정류장(교래방향),33.435179999999995,126.73451
대천환승정류장(세화방향),33.43615,126.73704
대천환승정류장(제주방향),33.43642,126.73489
대천환승정류장(종점),33.436215000000004,126.73691500000001
대천환승정류장(표선방향),33.43537,126.73714
대평리,33.235065,126.366925
대평리사무소,33.238215000000004,126.366235
대포동,33.24297,126.43175
대포포구,33.238835,126.4357
대포항,33.239805000000004,126.4377
대학동,33.513025,126.507135
대한목공소,33.49930500000001,126.59522
대한목장,33.301445,126.61401000000001
대화동,33.27275,126.6518
대흘1리,33.498517500000005,126.6531325
대흘2리,33.51197333333334,126.67420333333332
대흘2리새동네,33.51288,126.67645
대흘교차로,33.4687,126.67806
대흘리,33.498245,126.65900500000001
대흘초등학교,33.498995,126.657975
더라목,33.45751,126.39032
더럭초등학교,33.454195000000006,126.346115
더마파크,33.357175,126.242925
덕수2리교차로,33.275985000000006,126.31313499999999
덕수도련동,33.265015000000005,126.30455
덕수리군물왓,33.250725,126.31515
덕수리동동,33.250625,126.308255
덕수리새마을금고,33.256655,126.30448000000001
덕수초등학교,33.250483333333335,126.30362666666666
덕천리,33.502494999999996,126.770805
덕천보건진료소,33.50320000000001,126.76725
덕천상하동,33.50286,126.76433
던덕모롤,33.462355,126.408275
도깨비공원,33.4653,126.69284999999999
도두동,33.502725,126.46638000000002
도련1동,33.509190000000004,126.58989
도련1동입구,33.51263,126.58896
도련2동,33.51288,126.58905
도련반석스위트타운,33.50666,126.59114500000001
도련서마을,33.512095,126.57865
도련초등학교,33.51432,126.583145
도리초등학교,33.50129,126.466015
도리초등학교(종점),33.500575,126.46489
도린동산,33.358305,126.768215
도림사,33.418325,126.30239499999999
도순거린내,33.25895,126.47498
도순동,33.25269,126.47404
도순초등학교,33.24661,126.47839
도영슈퍼,33.24225,126.60025
도영슈퍼앞,33.24198,126.60045
도평동,33.48013,126.45126
도평로광평마을입구,33.47921,126.46207
도평마을입구,33.47993,126.45088
도평입구,33.47948,126.46516
도평초등학교,33.481764999999996,126.445585
도호동,33.485735000000005,126.494965
독벌은이동산,33.36885,126.68376
돈내코,33.299735,126.584555
돈내코교,33.29948,126.5887
돈내코마을,33.302825,126.57359
돈대산입구,33.95134,126.32771
돈물교,33.314735,126.714135
돌선밭,33.45406,126.42516499999999
돔뱅이왓,33.235079999999996,126.369475
돗바령,33.5123,126.68968999999998
돗소,33.26192,126.535665
동광단지,33.313874999999996,126.359525
동광리,33.30637,126.33837
동광문화마을,33.30592,126.33815
동광양,33.50211,126.53220999999999
동광육거리,33.310140000000004,126.34119
동광초등학교,33.501549999999995,126.545255
동광환승정류장(종점),33.31027,126.33934500000001
동광환승정류장1,33.31021,126.33932
동광환승정류장2(영어교육도시방면),33.310340000000004,126.33936
동광환승정류장3(한림방면),33.31048,126.34052
동광환승정류장4(제주방면),33.31044,126.34099
동광환승정류장5(서귀방면),33.30958,126.34083
동광환승정류장6(모슬포방면),33.30968,126.34025
동남아파트,33.249790000000004,126.50998
동덕아파트,33.25762,126.56009
동명리,33.4098,126.26569
동명리한천동,33.39448,126.27426
동모루,33.327965,126.71689
동모루왓,33.438959999999994,126.91954000000001
동문,33.257385,126.530985
동문로터리,33.2492525,126.56814
동문로터리(동문시장),33.51305000000001,126.527505
동문성당,33.510194999999996,126.532445
동문정류소,33.289060000000006,126.630285
동물개동산앞,33.240125000000006,126.43112500000001
동미빌딩,33.24866,126.56658
동방남비케길,33.48202500000001,126.691675
동백동산,33.28904,126.367335
동백동산습지센터,33.50918,126.71449999999999
동병듸,33.242535000000004,126.463375
동복리,33.55297,126.71261
동복리관광체험어장,33.553309999999996,126.71607
동복리휴게소,33.553415,126.70765
동부경찰서,33.501684999999995,126.536935
동부보건소,33.275185,126.703045
동부위생처리장입구,33.43638,126.695425
동부하수처리장입구,33.244395,126.59366
동사라마을,33.46791,126.44902
동산교,33.50028,126.51027
동상동,33.36133,126.77027
동상동삼거리,33.35627,126.77356
동상효,33.279804999999996,126.607235
동상효회전교차로,33.276765,126.60584499999999
동성동,33.5557,126.75453
동성마을,33.50005,126.51103
동성마을입구,33.4932,126.50753
동수동,33.51756,126.622455
동원산업,33.31224,126.82231
동일1리,33.22833,126.24289
동일2리,33.257684999999995,126.23674
동일2리입구,33.26037,126.23387000000001
동하동,33.347409999999996,126.77735
동홍대림,33.255825,126.57207
동홍동청소년문화의집,33.265542499999995,126.568275
동홍반석아파트입구,33.26268,126.56774
동홍분식,33.266735,126.568255
동홍사거리,33.25461,126.568345
동홍초등학교,33.259280000000004,126.570505
동홍초등학교입구,33.258725,126.568295
동화로입구,33.51276,126.57299
동회천,33.504443333333334,126.61406333333333
두모리사무소,33.35374,126.185305
두문이머세(두맹이골목),33.51051,126.53649000000001
두문포노린당,33.496385000000004,126.90914000000001
두수동,33.3514,126.76326
두인빌라삼거리,33.424085000000005,126.404105
둔지오름,33.50615,126.79796
뒤큰글,33.275855,126.60397499999999
뒤통모루,33.27533,126.66698
뒷동산,33.23666,126.51068
뒷빌레,33.27359,126.58972
뒷산길,33.49275,126.65061
디삘레,33.331075,126.71106
디지털융합센터,33.4513,126.57146000000002
디케이서비스,33.46369,126.5202
라마다프라자제주호텔,33.518305,126.51852
라신동,33.434664999999995,126.277605
라임오렌지빌,33.24670999999999,126.58712
렛츠런파크,33.410195,126.39303
롯데마트,33.482025,126.48229
롯데시티호텔(600번),33.489959999999996,126.48875000000001
롯데호텔,33.24872,126.41032
막거리,33.427345,126.401355
막동산,33.256355,126.52344500000001
막상올레,33.32582,126.83392
만장굴,33.53098,126.77188
만장굴입구,33.54936,126.77815666666667
만지동,33.2931,126.62687333333334
망동산,33.256809999999994,126.61885
망장포입구,33.264115000000004,126.63421
매일올레시장7번입구,33.24909,126.56706
매촌,33.51792,126.58864500000001
맹살공원,33.263145,126.6218
머구낭동산,33.245695,126.45823
먼나먼루,33.48793,126.6501
먼머루,33.27698,126.31021
멍중내,33.511179999999996,126.686075
메밀동산,33.482074999999995,126.653715
메이즈랜드,33.490543333333335,126.79897666666666
메종글래드제주,33.485969999999995,126.48717
명도암,33.47381,126.60976
명도암마을회관,33.470955000000004,126.61078
명도암입구,33.4848,126.603985
명도암입구삼거리,33.427595000000004,126.640295
명리동,33.318475,126.268855
명리동알동네,33.316845,126.268205
명신마을,33.49962,126.50303
명월리,33.38878666666667,126.26618333333333
명월리노인복지회관,33.384545,126.267355
명월리사무소,33.38675,126.26649
명월상동,33.37502,126.279535
명월상동회관,33.37487,126.28302500000001
명월하동,33.39664,126.26132333333334
명주주택,33.49573,126.493625
명춘동산,33.28996,126.66102
모감동,33.47582,126.381115
모구리야영장,33.405770000000004,126.81761
모슬포남항여객선터미널(운진항),33.21108,126.257405
모슬포우체국,33.222539999999995,126.255335
모슬포항,33.21703,126.252315
모진이작지해수욕장입구,33.948640000000005,126.33099
목다운목,33.520155,126.68854999999999
목선동,33.489845,126.71821499999999
몰래물,33.5105,126.482505
못가름,33.48843,126.47678
못거리,33.392675,126.27799999999999
무도동,33.284875,126.74140499999999
무릉1리리사무소앞,33.2703,126.2031
무릉1리사거리,33.270574999999994,126.20334500000001
무릉1리학교앞,33.271440000000005,126.20182
무릉2리소공원,33.27234,126.24558
무릉리(사장동),33.265695,126.1995
무릉문화의집,33.272580000000005,126.19928999999999
무릉손당호,33.27193,126.21126000000001
무수천,33.461215,126.44863000000001
묵리,33.94363,126.313965
묵리입구,33.949135,126.307975
묵리항,33.945755,126.31239
묵은길입구,33.250545,126.488435
문서교,33.52796,126.61373499999999
문수동,33.385540000000006,126.283485
문예회관,33.5048875,126.536315
문화마을,33.393,126.798055
물곧밭,33.456885,126.400695
물진밭입구,33.37104,126.86159
미듬아파트,33.418725,126.26877999999999
미래컨벤션센터,33.506625,126.514785
미타요양원,33.44663,126.85217
민속자연사박물관,33.50712,126.530835
민오름,33.48159,126.501075
바가잣도,33.26133,126.52725
바겟도동산,33.33733,126.70779999999999
바스메,33.405725000000004,126.77838
반석아르미아파트,33.26251,126.5674
반석아파트,33.48795,126.59027
반석주택,33.483959999999996,126.57734333333332
반참모르,33.25011,126.501115
밤나무골,33.501639999999995,126.594565
방구동,33.306995,126.76339999999999
방림원,33.336960000000005,126.26733
"방선문3차,4차빌리지",33.487695,126.526455
방선문빌리지,33.477665,126.536575
방아동,33.27977,126.174995
방애왓,33.481205,126.60504499999999
방지물,33.29707,126.22999
배낭골,33.3458,126.23028
배튼개입구,33.241240000000005,126.443405
백구동네,33.256335,126.42585
백구빌라입구,33.254625000000004,126.4246
백록초등학교,33.484995,126.47108
백약이오름,33.441205,126.794445
백화동,33.46691,126.710295
번개과학체험관,33.28918,126.58627
번대동,33.4782925,126.3921325
벌탬못,33.50741,126.772085
법기동,33.330295,126.17277999999999
법정사입구,33.302620000000005,126.458335
법호촌온성학교,33.292339999999996,126.59461999999999
법호촌입구,33.290365,126.594215
법화사사거리,33.263025,126.46041
법환농협,33.237245,126.512
법환새마을금고,33.23814,126.5137
법환초등학교,33.23663500000001,126.50878
벼락동산,33.24783,126.39242
별내린전망대,33.24719,126.41673
별빛누리공원/난타공연장,33.445375,126.54839
병문교,33.5089,126.5184
보건소,33.491859999999996,126.52084
보로미마을,33.46545,126.409235
보목동동네,33.24306,126.606225
보목신협,33.24166,126.60199
보목신협앞,33.2416,126.6025
보목입구,33.25871,126.59158
보목포구(도착),33.23936,126.60687
보목포구(출발),33.23949,126.60626
보목포구입구,33.241365,126.60454
보성리상동,33.2508,126.27433
보성리하동,33.25068,126.27456
보성상동,33.25233,126.27336
보성시장,33.50342,126.52726
보성초등학교,33.24987,126.27694500000001
복호동,33.33902333333333,126.19962333333332
복호동입구,33.3365,126.19668
볼목당,33.25668,126.43611
봉개교,33.49665,126.581605
봉개남문,33.49042,126.590705
봉개동,33.491524999999996,126.5926
봉개동주민센터,33.49073,126.59445
봉개워터파크,33.4864,126.60147
봉개체육공원,33.484265,126.612135
봉개초등학교,33.49005,126.59527
봉개큰동네,33.48935,126.59881
봉림사,33.25473,126.540155
봉성리사무소,33.42219,126.312825
봉성리서성동,33.417294999999996,126.31072
봉성하나로마트,33.419000000000004,126.31255666666668
부록마을,33.501605,126.56900999999999
부면동,33.41578,126.332725
부민장례식장,33.48084,126.522375
부영3차아파트,33.476304999999996,126.48718
부영아파트,33.4769,126.48313
북촌다려마을,33.55126,126.70085
북촌리,33.5477425,126.69493750000001
북촌리해동,33.544465,126.68620999999999
불미거동산,33.31768,126.74501
불미공방,33.25336,126.30417499999999
불미터,33.319325,126.714765
붉으내,33.31891,126.172445
붉은오름,33.394909999999996,126.685295
붉은오름휴양림입구,33.402835,126.682755
브릭캠퍼스,33.45828,126.486
블랭섬홀아시아,33.291520000000006,126.284355
블루마운틴커피박물관,33.38065,126.837275
비석거리,33.25512666666666,126.57699666666667
비석동,33.48838,126.4179
비안동,33.28166,126.720755
비양동,33.51123,126.96567
비자림,33.49326,126.810385
비자림로교래입구,33.41913,126.61716
사가동,33.29018000000001,126.62735
사거리,33.24486,126.432125
사계리동동,33.234700000000004,126.307975
사계리사무소,33.231445,126.29778
사계리서동,33.230665,126.292955
사계어촌체험어장,33.227935,126.30459
사계용해경로당,33.23102,126.308485
사농동산,33.343505,126.703585
사대부고,33.5130325,126.510095
사동복지회관,33.442040000000006,126.289385
사라마을,33.469575,126.44044000000001
사라봉,33.51305,126.5436
사라봉경로당입구,33.51587000000001,126.53842
사라봉오거리,33.5136,126.541015
사려니마을,33.42633000000001,126.655925
사려니숲길,33.42306,126.62612
사리물,33.350435000000004,126.69837
사장동,33.53342,126.65988
사평마을,33.492720000000006,126.512835
사평마을입구,33.48134,126.51127
사회복지법인춘강,33.452645000000004,126.551445
산굼부리,33.435345,126.68908499999999
산남내,33.471,126.775885
산남새마을금고,33.254909999999995,126.57378
산방복지회관,33.233245,126.302085
산방산,33.236425999999994,126.311476
산수동,33.30324,126.19756
산앗도,33.49532,126.6369
산양곶자왈,33.29076,126.25082499999999
산양리,33.294470000000004,126.23363400000001
산양리감귤선과장,33.303020000000004,126.237685
산여리통입구,33.307415000000006,126.781435
산이굴,33.44396,126.43163
산이수동,33.20841,126.29018500000001
산전동,33.34568,126.25539
산지물,33.265275,126.56466499999999
산지변전소,33.517025000000004,126.532645
산천단,33.44786,126.55539
산천단한국폴리텍대학,33.447990000000004,126.55558
산하동,33.305155,126.719025
삼남내,33.470665,126.77622
삼다체육공원입구,33.251585,126.51875999999999
삼달1리,33.374675,126.84458500000001
삼달1리게이트볼장,33.37625,126.84345
삼달1리사무소,33.374285,126.847575
삼달1리삼거리,33.37128,126.8415
삼달1리삼달보건진료소,33.37319,126.85220000000001
삼달2리사무소,33.36916,126.86784
삼달교차로,33.369005,126.86864
삼담우체국,33.502245,126.51291499999999
삼도119센터,33.51453,126.51783499999999
삼도1동주민센터,33.50318,126.51971
삼매봉,33.2447,126.54354
삼매봉도서관,33.24557,126.55364
삼매봉입구,33.24491,126.5438
삼매봉중계소입구,33.24226,126.55249
삼무공원,33.49043,126.490985
삼무공원사거리,33.489954999999995,126.48872499999999
삼부장미아파트입구,33.52744000000001,126.59002
삼성여자고등학교,33.25749,126.585675
삼성초등학교,33.5041,126.52664
삼아아파트,33.25189,126.57442
삼양1동,33.526445,126.588355
삼양2동,33.52123,126.58139
삼양3동,33.52489,126.57961
삼양3동포구,33.52717,126.57623999999998
삼양검문소,33.520984999999996,126.60043999999999
삼양동주민센터,33.52128,126.58567
삼양종점,33.528475,126.59138999999999
삼양초등학교,33.52112,126.58611
삼양파출소사거리,33.52054,126.58762999999999
삼양해수욕장입구,33.52618,126.58786
삼정지에듀,33.284855,126.27807999999999
삼주연립주택,33.25025,126.51035
삼화부영1차아파트,33.517065,126.587625
삼화아파트,33.50924500000001,126.54374
삼화지구,33.51733,126.58005
삼화지구3단지,33.515175,126.58613500000001
삼화초등학교,33.51429,126.57684499999999
상가리,33.45176,126.341695
상가리동동,33.452095,126.34693999999999
상가리보건진료소,33.452009999999994,126.34428
상가리서동,33.4503,126.340855
상귀동카름,33.473005,126.41330500000001
상귀리,33.472805,126.4094925
상덕천,33.4837,126.74663
상덕천리,33.481135,126.75149
상덕천마을입구,33.48366,126.74692
상도리세화고등학교,33.51653,126.86353
상도마을회관,33.51466,126.865725
상명,33.36007,126.26975
상명리,33.357905,126.275825
상명리동동,33.36229,126.26943
상명리동카름,33.364760000000004,126.271905
상모,33.224599999999995,126.265905
상모2리,33.22318,126.2578
상모3리,33.22312,126.25812
상모리감협,33.224125,126.26218
상모리이교동,33.22549,126.267315
상수동,33.256265,126.335185
상예2동,33.264285,126.377185
상예입구,33.2577,126.40441000000001
상원동,33.27513,126.66344
상위미,33.28847,126.65502000000001
상창교차로,33.280590000000004,126.359015
상창리사무소,33.27268,126.36505
상창보건진료소,33.27461,126.36286999999999
상천리,33.307225,126.381445
상천리사무소,33.30732999999999,126.379895
상하수도본부,33.499230000000004,126.650055
상효원수목원,33.30511,126.58575
상효입구,33.259625,126.59536
새가름,33.47336,126.504055
새가름마을,33.504760000000005,126.628635
새마을금고연수원,33.413129999999995,126.396965
새별오름,33.359965,126.36368000000002
새서귀초등학교,33.254245,126.51294999999999
새소망요양병원,33.278745,126.36137
색달,33.259865,126.405615
색달동,33.26172,126.412275
색달마을입구,33.260355,126.413535
생각하는정원,33.32615,126.25514000000001
생이집동산,33.269999999999996,126.612895
샤인빌리조트입구,33.306830000000005,126.79399999999998
서건도,33.236000000000004,126.50458
서건도입구,33.23588,126.503225
서광동리마을,33.286874999999995,126.32879
서광동리소랑못,33.285940000000004,126.331575
서광동리웃네거리,33.294455,126.33012
서광리,33.289030000000004,126.32478
서광리넙게오름(축협),33.290115,126.31813
서광서리,33.286125,126.30268
서광서리3교차로,33.291,126.300655
서광서리마을회관,33.285055,126.302865
서광서리사수동,33.28797,126.306895
서광서보건진료소,33.283474999999996,126.29851500000001
서귀북초등학교,33.26066,126.55918
서귀중앙여자중학교,33.255025,126.560665
서귀포YWCA,33.24457,126.56529
서귀포경찰서,33.256225,126.507605
서귀포고등학교,33.2576,126.56043
서귀포농업기술센터,33.28796,126.60664
서귀포농협,33.251529999999995,126.56115
서귀포동부도서관,33.26056,126.60793000000001
서귀포등기소,33.25314,126.56015
서귀포보건소,33.25223,126.55475
서귀포산업과학고등학교,33.29561666666667,126.59518666666666
서귀포시구시외버스터미널,33.25217,126.56052
서귀포시외버스터미널,33.24873,126.50799
서귀포시외버스터미널(가상정류소),33.24939500000001,126.50768
서귀포시중앙도서관,33.25177000000001,126.50771
서귀포여자고등학교,33.244505000000004,126.53152499999999
서귀포여자중학교,33.254580000000004,126.54672
서귀포우체국서귀포시청제2청사,33.255120000000005,126.50950499999999
서귀포자연휴양림,33.311930000000004,126.45751
서귀포중학교,33.247665,126.568905
서귀포천문과학문화관,33.28824,126.45727
서귀포초등학교,33.24293,126.56507500000001
서귀포칼호텔,33.24694,126.58149
서귀포칼호텔(종점),33.24701,126.58078
서귀포항,33.23981,126.56421666666665
서귀포항입구,33.24009,126.5643
서귀포향토오일시장,33.265690000000006,126.57396499999999
서년듸,33.235645000000005,126.49477999999999
서문로터리,33.51173,126.51932
서문로터리입구,33.24727,126.55635
서문사거리,33.51079,126.5198
서문시장,33.511894999999996,126.51805999999999
서복전시관,33.2451,126.57030666666667
서부경찰서,33.472854999999996,126.40669500000001
서부농업기술센터,33.35281,126.24745
서부보건소,33.411625,126.26989
서부신협유통영농조합,33.33553,126.261195
서상효,33.27284,126.59677500000001
서성동,33.27245,126.65032
서소동,33.283654999999996,126.73564
서의동,33.301,126.704165
서진아파트,33.25334,126.46391
서해아파트,33.50457,126.54152500000001
서해안로,33.51976500000001,126.49372500000001
서호동마을회관,33.257290000000005,126.52279
서호북문,33.261179999999996,126.52252999999999
서호새마을금고,33.25727,126.52292
서호입구,33.24760500000001,126.524315
서호초등학교,33.25428,126.52823
서홍동복지회관,33.263695,126.55084500000001
서홍새마을금고,33.26417,126.55798999999999
서회천,33.498565,126.60680500000001
석교동,33.310405,126.349345
석부작박물관,33.25,126.53499
석수동,33.32067,126.75444
선녀와나무꾼,33.479905,126.70199500000001
선담밭,33.2712,126.276655
선덕어린이집,33.48101,126.51248
선돌목동길,33.44933,126.55091999999999
선린지,33.493179999999995,126.715605
선반로입구,33.241145,126.505285
선인동,33.48566666666667,126.69966333333333
선인동사거리,33.48513,126.69993
선인장마을,33.39499,126.85942
"선인장마을,돌마을공원",33.354475,126.252905
선진동,33.45753,126.70321
선흘,33.51156,126.70523
선흘1리,33.51168,126.70512
선흘1리운동장,33.504985,126.70789500000001
선흘2리,33.45843,126.711615
선흘2리입구,33.458635,126.70148
선흘목선동,33.48944,126.71839
선흘분교입구,33.51557,126.706365
섭지코지,33.43676,126.9222
섯가름,33.237075000000004,126.47593499999999
섯동네,33.384805,126.79654
성박물관,33.255475000000004,126.3447
성산고등학교,33.468515,126.91676000000001
성산고입구삼거리,33.46539333333333,126.90874000000001
성산국민체육센터,33.468785000000004,126.905835
성산기상대관사,33.384190000000004,126.86911
성산농협,33.44699,126.91115500000001
성산농협종합유통센터,33.42584,126.90679
성산리,33.46521,126.93519
성산리입구,33.46076,126.931295
성산리취락구조,33.46603,126.93465499999999
성산보건지소,33.447,126.91495
성산서부게이트볼장,33.387465,126.88018500000001
성산읍공설묘지입구,33.4337,126.81777
성산읍사무소,33.44161,126.911565
성산일출봉입구,33.463235,126.9334
성산청소년수련원,33.361540000000005,126.84022
성산포수협,33.44888,126.91644
성산포수협표선지점,33.32405,126.83173
성산하이츠빌라,33.25011,126.5048
성산항,33.470375000000004,126.93001000000001
성산항입구,33.468345,126.92936
성산환승정류장(고성리한국물류),33.44744,126.91379
성산환승정류장(고성리회전교차로),33.44728,126.91378
성수동,33.480869999999996,126.41277
성연목장,33.422445,126.756885
성읍119지역센터,33.384075,126.794465
성읍1리,33.38744,126.79957499999999
성읍2리,33.410495,126.76937000000001
성읍농협,33.39047,126.801
성읍농협앞,33.39078,126.8008
성읍분투왓,33.402125,126.783575
성읍환승정류장(성읍1리사무소),33.38945,126.798375
성전동,33.34111,126.25725
성지요양원,33.48308,126.438135
성판악,33.384875,126.62042
성화마을회관,33.51227,126.50291
세계자동차제주박물관,33.28242,126.348905
세곳못,33.44199,126.38122
세기아파트,33.413196666666664,126.52575999999999
세미마을,33.46993,126.66412
세성로입구,33.378645,126.802055
세천동,33.275235,126.67484999999999
세화1리마을회관,33.331705,126.79837
세화1리북문,33.33266,126.79538
세화1리취락구조,33.327835,126.79820000000001
세화2리사무소,33.306835,126.80440999999999
세화3리삼거리,33.320305000000005,126.789795
세화3리웃동네,33.323165,126.79198500000001
세화3리입구,33.333465,126.78807
세화3리중동네,33.322015,126.7914
세화고등학교,33.5168,126.863
세화리구좌농협,33.521010000000004,126.85972
세화리시장2동,33.52355,126.85343
세화환승정류장(세화리),33.523315,126.85607999999999
셰프라인월드,33.434785000000005,126.73202
소길리,33.44121,126.37914
소길리사무소,33.43995,126.37975
소길장밭,33.4424,126.38443999999998
소남동산,33.29445,126.6317
소란마을,33.45528,126.549305
소보리당,33.26432,126.38418
소보리당입구,33.26411,126.38191499999999
소암기념관,33.244925,126.567495
소앵동입구,33.46936,126.408195
소인국테마파크,33.28957,126.32059000000001
속도르,33.252835,126.470155
솔대왓,33.26406,126.55546
솔동산입구,33.244675,126.56368499999999
솜반천,33.251909999999995,126.55338
송당로타리,33.471585000000005,126.784075
송당리마을,33.469745,126.78594000000001
송당리사무소,33.47167,126.78227
송당물혹,33.470929999999996,126.786225
송당북문,33.47309,126.78483
송당상동,33.466795,126.77294499999999
송당초등학교,33.47181,126.77955
송산동주민센터,33.244910000000004,126.565385
송악도서관,33.22573,126.24824
송악펜션단지,33.21215,126.29236
송천교,33.307415,126.77805000000001
쇠소깍입구,33.25678,126.62174
쇠소깍하효항입구,33.25277,126.617215
쇠질곳,33.467009999999995,126.37905
수농원,33.303110000000004,126.77012500000001
수룡동,33.308279999999996,126.23862
수망가름,33.32714,126.71314
수망사거리,33.32808,126.7124
수모루,33.246183333333335,126.52433666666667
수산1리비석거리,33.44349666666667,126.88879333333334
수산1리사거리,33.44235,126.88352666666667
수산1리큰동네,33.44878,126.87749
수산2리,33.43975,126.86513
수산2리비석거리,33.4396,126.86507
수산2리사무소,33.44195,126.8637
수산2리생태체험센터,33.43921,126.86311
수산2리입구,33.438865,126.87387000000001
수산2리퐁낭거리,33.44108,126.861805
수산교차로,33.471270000000004,126.39511
수산리,33.46995,126.39454
수산리사무소,33.454993333333334,126.71983
수산리사무소앞,33.46779500000001,126.39338000000001
수산저수지입구,33.473164999999995,126.390345
수산체육공원입구,33.450405,126.85148000000001
수산초등학교,33.4463,126.88624
수선화아파트,33.489075,126.52983
수악교,33.336035,126.61067
수원리,33.4259,126.269535
수원주유소,33.42372,126.26662999999999
수장동입구,33.341785,126.21142
수정동,33.49264,126.42859
수협제주도지회,33.489785,126.495125
숨비나리,33.283965,126.354185
스위스마을입구,33.49161500000001,126.674505
스위트호텔,33.24904,126.40767
승준농원,33.448415,126.40633500000001
승천로,33.49356,126.541555
시각장애인복지관,33.47059,126.58083500000001
시민회관,33.507215,126.524625
시외버스출발지(가상정류소),33.49946,126.51478
시청후문,33.256395000000005,126.510975
시티주유소,33.4764,126.47976
시흥리,33.47644,126.896525
시흥리사무소,33.473825000000005,126.898715
신광사거리,33.493745000000004,126.493255
신도1리,33.278055,126.191415
신도2리,33.277665,126.17566
신도3리,33.286255,126.185845
신라호텔,33.247615,126.40741
신례2리교차로,33.26724,126.64309
신례교,33.29347,126.624625
신례리,33.284765,126.63334499999999
신례초등학교,33.284555,126.632945
신례하동,33.280855,126.635105
신명동,33.403687500000004,126.30074250000001
신사동,33.534745,126.675675
신사동(기점),33.52596,126.67789
신사동(종점),33.52537,126.67791
신사수동,33.508775,126.47731999999999
신산로,33.507925,126.533905
신산리,33.382819999999995,126.87731
신산마을,33.493520000000004,126.44492
신산마을입구,33.479315,126.458355
신산마을주차장,33.4895,126.44974
신산머루,33.449934999999996,126.437525
신산환승정류장(성산농협신산지점),33.380135,126.875935
신선동,33.512249999999995,126.698975
신설동,33.481292499999995,126.43178
신성동,33.274825,126.694835
신성마을,33.493750000000006,126.48884
신성여자중고등학교,33.478962499999994,126.56237000000002
신세계빌라,33.23956,126.51484500000001
신시가지,33.257578,126.50932
신안동,33.51541875,126.63514749999999
신안동교차로,33.519035,126.634045
신양1리,33.945609999999995,126.32767
신양2리,33.94093,126.32142
신양2리입구,33.94193,126.317025
신양리,33.4357,126.91626500000001
신양리입구,33.4382,126.91090000000001
신양입구,33.44481,126.91339
신엄리,33.471685,126.3681
신엄입구,33.478445,126.363455
신엄포구,33.473015000000004,126.34995
신연동,33.31608,126.24965
신제주오피스텔,33.48325,126.48984
신제주초등학교,33.484674999999996,126.4964
신창리농산물종합유통센터,33.34664,126.19092
신창리하나로마트한경농협,33.34693,126.18998
신창리한경수협,33.34761,126.18279
신창상동,33.34829,126.18743
신창중학교,33.34737,126.18271
신창환승정류장(한경면사무소),33.350229999999996,126.18321
신천동,33.50368,126.54933
신천리,33.344645,126.84931499999999
신천리취락구조,33.348265,126.85379
신천지아파트,33.506145000000004,126.54485
신촌리,33.53451,126.62162000000001
신촌초등학교,33.532525,126.618665
신촌초등학교(종점),33.53252,126.61867
신평리,33.26498333333333,126.25913666666666
신평리상동,33.268190000000004,126.262275
신풍리사거리,33.364615,126.835335
신풍리사무소,33.36123,126.835925
신풍리하동,33.36325,126.865205
신풍리화단이소,33.35838,126.83715000000001
신풍입구,33.361180000000004,126.820435
신협,33.2642,126.61324
신화역사공원,33.305385,126.31928500000001
신효,33.263729999999995,126.61113
신효동,33.26361,126.61012
신효웃동네,33.267405,126.61375
신흥1리사무소,33.3051,126.765985
신흥1번지,33.305935,126.773815
신흥2리,33.31593,126.748645
신흥2리보건진료소,33.319694999999996,126.748065
신흥2리사무소,33.32166,126.745395
신흥교,33.31404499999999,126.75096500000001
신흥교차로,33.300489999999996,126.76688
신흥농장,33.311994999999996,126.75457999999999
신흥동,33.339956666666666,126.20953333333334
신흥리(마을입구)함덕고등학교,33.543475,126.65352
신흥리복지회관,33.54679,126.65208
신흥리취락구조,33.29866,126.764865
신흥리포구,33.54874,126.6508
심향사,33.2949625,126.6220725
씨사이드홈,33.280435,126.723705
씨에스호텔,33.243735,126.420325
아라동주민센터,33.4759,126.5449
아라뜨래별,33.437290000000004,126.55469
아라주공아파트,33.47337,126.545555
아라초등학교,33.47723666666666,126.54450000000001
아랑조을거리입구,33.25112,126.55946
아르미아파트,33.49607,126.594375
아름마을아파트,33.484055,126.42871
아미휴먼빌,33.2632,126.55102
아부오름,33.444680000000005,126.78083749999999
아시아CGI애니메이션센터,33.25233,126.56772000000001
아이뜨락공원,33.264109999999995,126.55343
안국사,33.468785,126.61103499999999
안남동,33.482445,126.40639
안덕119센터,33.250319999999995,126.329395
안덕계곡,33.25801,126.35287
안덕면사무소,33.257515,126.32985
안덕초등학교,33.250125,126.33510000000001
안성리,33.249390000000005,126.28195
안성리가스충전소,33.251020000000004,126.2837
안성리사무소앞,33.249340000000004,126.28127
안성리새동네,33.25085,126.28347
안좌동,33.35837,126.75583
안좌동입구,33.35775,126.7597
알밤오름,33.496865,126.712755
알뱅듸왓,33.450445,126.39058499999999
알송당,33.483765000000005,126.787295
알진오름입구,33.477075,126.78415000000001
앞거리,33.258255,126.427595
앞동산,33.26499666666667,126.61399666666667
앞밭가름,33.44278,126.40166
애월119센터,33.46623,126.34871
애월고등학교,33.462525,126.33451
애월리,33.46439,126.32068999999998
애월신협,33.46416,126.321
애월읍사무소,33.46283,126.32968
애월중학교,33.463555,126.32469
애월하나로마트,33.460044999999994,126.32121
애월환승정류장(애월리),33.464635,126.319265
애조로광령1리입구,33.47175,126.434895
약천사,33.242945000000006,126.45059
약천사(종점),33.24303,126.45084
약천사(출발지),33.24336,126.45061
양가왓,33.26421,126.5556
양돈단지,33.360125000000004,126.308535
양수동입구,33.438485,126.859125
양잠단지,33.4588,126.70292
양지(추모)공원,33.438565,126.57646
어대오름,33.50105,126.761
어두모루,33.251545,126.43852
어리목,33.39035,126.48531
어리목입구,33.39022,126.48533
어썸브리즈,33.259074999999996,126.275615
어영마을,33.519009999999994,126.48977500000001
어음1리사무소,33.41736,126.33066
어음1리입구,33.418400000000005,126.32663500000001
어음2리,33.40251,126.338415
어음2리사무소,33.40122,126.33663
어음2리입구,33.38025,126.37048
어촌계입구,33.288045,126.748355
억수동,33.52666000000001,126.686915
엘리시안CC,33.38017,126.37142
엘지마트,33.96125000000001,126.294895
여객선대합실,33.9631,126.29739000000001
여의물,33.244935,126.537995
역지동,33.34688,126.78332
연대마을,33.49195,126.42487666666666
연동365의원,33.48186,126.49175500000001
연동대림1차아파트,33.48049,126.48984
연동입구,33.496215,126.496875
연동주민센터,33.48773,126.49649
연동한일시티파크,33.491550000000004,126.48906500000001
연미마을,33.48693,126.50723500000001
연미마을입구,33.49298,126.5075
연미마을회관,33.486595,126.504845
연미월왓,33.481315,126.50855999999999
연미입구,33.48767,126.50842
연수마을,33.50163,126.54336
열린병원,33.25401,126.56496000000001
열방대학,33.536885,126.701535
염돈,33.2499,126.49478
염돈동,33.25012,126.49405
영등물,33.555440000000004,126.73616000000001
영락교회,33.51115,126.54351
영락리,33.257495,126.21017
영락사통,33.260655,126.207795
영산홍아파트,33.49537,126.53994
영실매표소,33.34025,126.48022
영실입구,33.333105,126.45955000000001
영주고등학교,33.457155,126.57780500000001
영주고입구(2호동),33.459215,126.574575
영천동주민센터,33.26884,126.58723
영평동,33.479235,126.56337500000001
영평상동,33.47697,126.56894
영평상동마을회관,33.476725,126.56823
영평알동네,33.48205,126.560355
영평하동,33.486895000000004,126.573235
영흥리,33.959785,126.2967
영흥리부녀회사무실,33.959579999999995,126.29719
예담요양원,33.342305,126.816335
예래동가동거리,33.24533,126.38805
예래동주민센터,33.25401,126.398135
예래사우나,33.26418,126.38501
예래입구,33.258655000000005,126.40453
예래초등학교,33.24667,126.39113
예비군훈련장,33.412866666666666,126.52609333333334
예원동,33.4585225,126.40056
예원동민회관앞,33.458985,126.39937
예초,33.953590000000005,126.33134
예향원,33.35304,126.25907000000001
옛성정문,33.31817,126.74521
오광로,33.485455,126.460785
오광로입구,33.49536499999999,126.45620500000001
오당빌레,33.45337,126.35249
오도마을,33.490985,126.45751999999999
오등동,33.475205,126.529605
오등동입구,33.48120333333333,126.52999
오등상동,33.462705,126.53363
오등상동복지회관,33.45939,126.539835
오라1동,33.49244,126.51676
오라1동복지회관,33.49392,126.51639
오라3동,33.49925,126.50318
오라동주민센터,33.4952,126.51259
오라오거리,33.500029999999995,126.50465
오라초등학교,33.48912,126.51244
오래물광장,33.504935,126.46719999999999
오렌지빌라,33.25915,126.56909
오름가름,33.47167,126.508015
오름중학교,33.5172,126.585725
오봉교,33.4747,126.526315
오설록,33.30491333333333,126.28913
오션팰리스호텔,33.2461,126.56197499999999
오조리,33.46712,126.91305
오조리상동입구,33.462410000000006,126.910305
오조리입구,33.46715,126.91345
오조리하동,33.458615,126.91226499999999
오조해녀의집,33.468775,126.922425
오족돌,33.25652,126.43218
오현중고등학교,33.515395,126.55784
오희준공원,33.266194999999996,126.58534499999999
온난화대응농업연구소,33.46654,126.5186275
온천동,33.319035,126.74636
온평리,33.40329,126.89605499999999
온평초등학교,33.40744333333333,126.89722333333334
올란이,33.345055,126.842705
올리수,33.324535,126.71381
옹포리,33.403175000000005,126.25193999999999
옹포사거리,33.405715,126.25604999999999
와산리,33.49172,126.68115
와산리경로당,33.492815,126.681285
와산삼거리,33.49129,126.68226
와흘,33.50308,126.63506
와흘리,33.503859999999996,126.6359475
와흘상동,33.492745,126.634675
왕대왓,33.234495,126.48301500000001
외도부영1차아파트,33.48655,126.43090000000001
외도부영2차아파트,33.484854999999996,126.43086
외도초등학교,33.49366,126.433805
외돌개,33.2411,126.54750999999999
용강동,33.47804,126.58587333333332
용강동대합실,33.47839,126.586095
용강동퐁낭밭,33.471255,126.584145
용강마을,33.4757,126.58553
용눈이오름,33.46328,126.83218
용담1동주민센터,33.50984,126.51328
용담레포츠공원,33.518694999999994,126.499685
용담사거리,33.51092,126.513795
용담새마을금고,33.509640000000005,126.51507000000001
용담어린이집,33.51173,126.50540000000001
용당,33.25528,126.540105
용당리,33.333945,126.181885
용두암현대1차아파트,33.516099999999994,126.508535
용마로,33.514995,126.506065
용마마을,33.51696,126.50362
용문마을,33.50745499999999,126.50938500000001
용문마을회관,33.505300000000005,126.50795
용문사거리,33.508735,126.51014
용수리,33.32101,126.17853999999998
용수리마을회관,33.32527,126.16879
용수리충혼묘지,33.32086,126.17812
용암해수단지,33.54263,126.81585
용운동,33.43211,126.27593999999999
용운사,33.25999,126.62346
용주사,33.31777,126.774075
용천마을,33.500730000000004,126.52064999999999
용천사입구,33.26138,126.52986
용해로,33.515485,126.50242
용화로,33.50963,126.50869499999999
용흥동,33.25035,126.482985
용흥리,33.451890000000006,126.36922
용흥리마을회관,33.459005,126.3695
용흥리상동,33.455825000000004,126.36999499999999
용흥리하동,33.462,126.368665
우남동,33.264430000000004,126.390895
우당도서관,33.51231,126.54815
우당도서관입구,33.51262,126.54517
우도봉입구,33.49558,126.95411
우도천진항,33.49334,126.95151
우령마을입구,33.48846,126.43099
우령서로입구,33.49167,126.426305
우령이마을,33.4885,126.4308
우진교차로,33.460480000000004,126.69901999999999
운전면허시험장,33.4062,126.38632
웃가름,33.50913,126.70703499999999
웃거리,33.43953666666667,126.40276999999999
웃송당,33.471155,126.77158
웃인다마을,33.464459999999995,126.54925
웃한길사거리,33.25912,126.42716
원노형,33.4850675,126.48185749999999
원님교차로,33.305465,126.700245
원당봉,33.52166,126.59325
원당분화원,33.52107,126.59493
원동,33.39993,126.37917
원동입구,33.444885,126.335895
원물오름,33.318445000000004,126.34653
원불교,33.284675,126.71506500000001
월광동,33.293229999999994,126.25502499999999
월광동굴동산,33.295120000000004,126.25739
월광로,33.490359999999995,126.4719325
월구마을,33.50013,126.507
월라봉,33.262395,126.605925
월랑로입구,33.49368,126.47213
월랑마을남녕고등학교,33.4877,126.48219
월랑입구,33.49395,126.47156
월랑초등학교,33.49259,126.479175
월령리,33.376050000000006,126.21761000000001
월림,33.34792,126.25608
월림리,33.351956666666666,126.25973333333333
월림삼거리,33.349965,126.25613000000001
월산동,33.26001,126.491965
월산마을,33.473110000000005,126.463255
월산정수장입구,33.478555,126.46880999999999
월성마을,33.50419,126.50338
월성마을회관,33.50217000000001,126.504965
월정리,33.551825,126.7911
월정리용천동,33.55066,126.782385
월정사,33.4677,126.510485
월평마을,33.3562475,126.5180925
월평아왜낭목,33.243575,126.45873499999999
월평알동네,33.24335,126.460455
위미1리사무소,33.27411,126.65645
위미2리교차로,33.27775,126.66166
위미3리,33.275355,126.6869
위미3리마을회관,33.275075,126.68887000000001
위미감협,33.28111,126.66915
위미농협하례지소,33.297625,126.60961499999999
위미리,33.2757,126.66621
위미리(위미2리교차로),33.27737,126.66101
위미문화의집,33.274755,126.6591
위미정수장,33.286339999999996,126.67225
위미중학교,33.280595000000005,126.66236
위미초등학교,33.27367,126.65455
위호텔,33.28505,126.45454000000001
윗가시나물,33.467075,126.56967499999999
유건이오름,33.41684,126.84042
유수암(거문덕이),33.431,126.40012999999999
유수암리,33.432066666666664,126.40774666666668
유수암리사무소,33.441415,126.40321999999999
유수암리입구,33.44339,126.39103
유수암상동,33.42284000000001,126.40836999999999
유수암상동경로당,33.423185000000004,126.405325
유수암천,33.443065000000004,126.40039000000002
유승한내들아파트,33.252555,126.50448
으뜸마을,33.47867666666667,126.48107333333333
은남동,33.48585,126.49169
은혜마을종점,33.46522,126.615
응전동,33.28295,126.300295
의귀교회앞,33.31239,126.71370999999999
의귀리월산동,33.31255,126.72125
의귀산하동,33.298914999999994,126.72090499999999
의귀서동네,33.30975,126.71186
의귀초등학교,33.31041999999999,126.71533
의귀환승정류장(의귀초등학교),33.310745,126.71489
의사오흥태비,33.400864999999996,126.87866
이교동삼거리,33.226215,126.27158
이기풍선교기념관,33.45622,126.66248999999999
이도2동행정복지센터,33.49630499999999,126.53593000000001
이도근린공원,33.49708,126.54507
이도수선화아파트,33.4923875,126.55097999999998
이도주공아파트,33.490365,126.534085
이도초등학교,33.489320000000006,126.532655
이스트소프트,33.44739,126.571545
이스트힐스,33.48153,126.633465
이시돌단지,33.35883,126.33463
이시돌삼거리,33.344685,126.31683000000001
이시돌하단지,33.34489,126.32241666666665
이천장물,33.24177,126.46728999999999
이호2동,33.49498,126.461295
이호동동마을,33.50035,126.46124499999999
이호동물병원,33.353570000000005,126.31542999999999
이호동주민센터,33.498909999999995,126.45852500000001
이호테우해수욕장,33.496275,126.455425
이화농장,33.324600000000004,126.731835
이화아파트,33.518209999999996,126.53988000000001
인다마을,33.471045000000004,126.54561000000001
인성리(남문지앞사거리),33.24788,126.27748
인성리(보성농협앞),33.2482,126.27692
인향동,33.27646000000001,126.24369999999999
인향동입구,33.272290000000005,126.24571
인화동,33.509055000000004,126.53961000000001
인화동입구,33.51317,126.53839500000001
인화초등학교,33.50635,126.53912500000001
일과1리,33.23437,126.23917
일과2리사무소,33.245279999999994,126.22398
일과2리서림수원지입구,33.24306,126.22800000000001
일도2동주민센터,33.51099,126.538795
일도초등학교,33.51109,126.52875
일성콘도미니엄,33.385045000000005,126.22159500000001
일우한란아파트,33.492555,126.43094500000001
일출랜드입구,33.380755,126.84499500000001
임항로,33.52071,126.54028
입석동,33.316155,126.597005
자동차검사소,33.51456,126.58883
자미성,33.29019,126.66064
자연빌라,33.26225,126.538805
자운당,33.467510000000004,126.35687
자운당사거리,33.466655,126.35768999999999
작박동네,33.253235000000004,126.4237
장구마을,33.475840000000005,126.532255
장머들,33.520579999999995,126.56843
장안그랜드빌라,33.243700000000004,126.59631999999999
장애인복지회관,33.28642,126.58431000000002
장작평사,33.941075,126.32400000000001
장전리동가름,33.45259,126.395275
장전리사무소,33.450935,126.38833000000001
장전알동네,33.45179666666667,126.38543333333332
장전초등학교,33.44977,126.390945
장전포제청,33.44411,126.38234
장지동산,33.40146,126.88202
저지남동,33.3301,126.25515
저지리,33.33056,126.25506999999999
저지리성전동,33.3413,126.25698
저지리수동,33.33705666666667,126.23709000000001
저지리신흥동,33.33855,126.26396
저지리알못,33.33592,126.263505
저지리중동,33.3353,126.25704
저지오름,33.333455,126.25643
저청중학교,33.325720000000004,126.251915
전경대입구,33.5068,126.87738999999999
전국환경감시협회,33.462255,126.66087
전답동,33.29483,126.20422
전원마을,33.474705,126.638695
전원유치원,33.487205,126.539755
정든마을,33.48745,126.47406
정든마을3단지,33.489940000000004,126.471295
정문동,33.249515,126.39365000000001
정방동문화의집,33.24607,126.56844
정부제주지방합동청사,33.492175,126.52699
정실,33.46962,126.50967
정실마을,33.46918,126.50971
정실오거리,33.467155000000005,126.51405500000001
정존마을,33.481565,126.47341
정혜재활원,33.287,126.57819
제2효레교,33.284745,126.60822999999999
제3의귀교,33.312380000000005,126.719205
제4부두,33.52018,126.53818
제6부두,33.52276,126.54454
제대마을,33.457785,126.55397500000001
제대아파트,33.458839999999995,126.55732499999999
제석공원,33.2461,126.56713500000001
제석머리,33.31527,126.177055
제성마을,33.493674999999996,126.484715
제원아파트,33.487989999999996,126.49001
제일교,33.51234,126.53191
제일교동문시장입구,33.51235,126.53175
제일농장,33.492935,126.66834499999999
제일농장앞,33.494344999999996,126.66403
제일빌리지,33.460755,126.44484
제주고등학교,33.47327,126.484155
제주고등학교/중흥S클래스,33.47626,126.48141
제주공룡원,33.443290000000005,126.43186
제주공천포전지훈련센터,33.274805,126.63921500000001
제주관광대학,33.447365,126.435865
제주관광대학(가상),33.4482,126.43583
제주교통방송아라아이파크,33.477729999999994,126.549335
제주국제공항,33.5045,126.49455
제주국제공항(600번),33.50577,126.49252
제주국제공항(구제주방면),33.506609999999995,126.49345
"제주국제공항(대정,화순,일주서로)",33.506440000000005,126.49298
제주국제공항(신제주방면),33.5061,126.49275
"제주국제공항(일주동로,516도로)",33.50669,126.49335
제주국제공항(종점),33.50571,126.49318999999998
"제주국제공항(평화로, 800번)",33.50659,126.49288
제주국제공항입구,33.50461,126.49647
제주국제대학교,33.439945,126.5708475
제주국제자유도시개발센터,33.45278,126.57135500000001
제주국제컨벤션센터,33.2434,126.42466
제주국제컨벤션센터중문대포해안주상절리대,33.24309,126.42472
제주노인복지타운,33.254225000000005,126.43897
제주대학교,33.46,126.56164000000001
제주대학교교육대학,33.51341,126.55344
제주대학교병원,33.468696666666666,126.54672333333333
제주대학교입구,33.45657333333334,126.55118666666665
제주도립미술관,33.45284,126.48787
제주도립미술관입구,33.454595,126.48715999999999
제주도청신제주로터리,33.491265,126.496625
제주돌문화공원,33.44681,126.664155
제주동여자중학교,33.502785,126.54026499999999
제주동중학교,33.519795,126.57154
제주동초등학교,33.5133,126.532505
제주레일바이크,33.46463,126.836535
제주모자원입구,33.46286,126.56644
제주목장,33.417334999999994,126.677965
제주민속식품입구,33.428354999999996,126.751485
제주민속오일장,33.49364,126.477165
제주민속오일장입구,33.493759999999995,126.47495
제주민속촌,33.32510500000001,126.841695
제주버스터미널,33.500065,126.51478499999999
제주버스터미널(종점),33.49919000000001,126.51632
제주사대부설중학교,33.51497,126.51049499999999
제주삼다수,33.421504999999996,126.676685
제주삼양동유적,33.523070000000004,126.586585
제주서부신협,33.327225,126.25327
제주서중학교,33.49359,126.481515
제주성지,33.509925,126.52587
제주세계자연유산센터거문오름,33.45683,126.7135
제주세계자연유산센터입구,33.45543,126.71036000000001
제주소방서,33.49166,126.53581
제주시공동묘지관리소,33.41942,126.49149
제주시보건소,33.49129,126.51937
제주시외버스터미널,33.499505,126.51479499999999
제주시외버스터미널(종점),33.49993,126.51414
제주시청(광양방면),33.49892,126.53035
제주시청(아라방면),33.499559999999995,126.52977
제주신화월드서머셋,33.299935000000005,126.31866
제주신화월드테마파크,33.30272,126.31548000000001
제주썬호텔,33.48981,126.49371500000001
제주아트리움,33.46586,126.456445
제주여자상업고등학교,33.51388,126.53674
제주여자중고등학교,33.485,126.54171
제주여자중고등학교(광양방면),33.4852,126.54289
제주여자중고등학교(아라방면),33.48486,126.54293
제주여자중고등학교제주지방해양경찰청,33.48516,126.54182
제주연구원,33.46765,126.51417
제주연안여객터미널,33.519065,126.535435
제주영지학교,33.48924,126.54278500000001
제주오설록티뮤지엄,33.30487,126.288315
제주월드컵경기장,33.24899666666667,126.50789666666667
제주월드컵경기장(600번),33.249224999999996,126.50905499999999
제주월드컵경기장서귀포버스터미널,33.24912,126.509
제주월드컵경기장서문,33.245845,126.506455
제주웰컴센터,33.486549,126.499152
제주유리의성,33.313900000000004,126.271985
제주은행,33.24807,126.56356
제주의료원,33.44569,126.55829500000002
제주이야기,33.42903,126.409605
제주자동차검사소,33.51456,126.58898
제주자동차검사정비사업조합,33.510290000000005,126.56191
제주자동차운전학원,33.478165,126.530165
제주장애인요양원,33.45515,126.5714
제주절물자연휴양림,33.440479999999994,126.63022
제주제일고등학교,33.480315000000004,126.48177000000001
제주제일중학교,33.494025,126.539525
제주조각공원,33.249159999999996,126.321325
제주조각공원입구,33.25051500000001,126.321825
제주중앙고등학교,33.471555,126.57142999999999
제주중앙여자고등학교(광양방면),33.489020000000004,126.5392
제주중앙여자고등학교(아라방면),33.48941,126.53864
제주중앙여자중학교,33.50523,126.51987
제주중앙중학교,33.48561,126.49974
제주중학교/제주향교,33.51078,126.5157
제주지방법원(광양방면),33.49363,126.53476
제주지방법원(아라방면),33.493109999999994,126.53509
제주컨트리클럽,33.432829999999996,126.58525
제주평화박물관,33.304739999999995,126.25665000000001
제주평화양로원,33.46537,126.61122999999999
제주학생문화원,33.5015,126.54317
제주한라대학교,33.478205,126.47514000000001
제주한라대학교(종점),33.47779,126.47574
제주항공우주박물관,33.3025775,126.301535
제주항공우주호텔,33.302040000000005,126.29526000000001
제주해변공연장,33.51738,126.52249499999999
제주해안경비단,33.35709,126.82309000000001
제주해양경찰서,33.52042,126.5397
"제주현대미술관,김창열미술관",33.33775,126.26650000000001
제지기오름,33.245395,126.611095
조성동입구,33.35773,126.2737
조수1리,33.336824,126.22998
조수1리중동,33.334175,126.22687
조수2리,33.294775,126.21596000000001
조수2리웃동네,33.29677,126.21997
조수2리윗동네,33.296859999999995,126.21961
조수리,33.33576,126.22831
조천도서관,33.53706,126.66796
조천리,33.535779999999995,126.636375
조천리상동,33.53522,126.6358
조천리새마을공장,33.53497,126.63271
조천만세동산,33.53958,126.6417
조천만세동산(종점),33.53955,126.64165
조천읍사무소,33.534859999999995,126.63217
조천체육관,33.54007,126.64273
조천체육관(종점),33.5401,126.64279
조천환승정류장(조천리사무소),33.53826,126.6399
조천환승정류장(조천우체국),33.5377,126.63877
존손이굴,33.45285333333334,126.36016666666667
종달리,33.495035,126.89618999999999
종달초등학교,33.492639999999994,126.896375
종달항,33.497325000000004,126.91120999999998
종보존연구센터,33.276025,126.681765
종합문예진흥사업소,33.24508,126.55365
종합사격장,33.441055000000006,126.56689
종합어시장,33.5164,126.52793
좌기동,33.27462,126.234145
주거물,33.24386,126.52123
주공2단지,33.253825000000006,126.572235
주공2아파트,33.25225,126.57185
주공34단지,33.250625,126.572385
주공6단지,33.26269,126.55905
주공아파트,33.25108,126.57221
주공아파트5단지,33.2646,126.56115
주구동산,33.322805,126.17020500000001
주르레마을,33.45003500000001,126.48638
주암주택,33.540785,126.64555
주전동,33.33603,126.17666
죽성마을입구,33.46313,126.5491
중문게이트볼장,33.262455,126.42801499999999
중문고등학교,33.252795,126.44814
중문골프장,33.24985,126.40751000000002
중문관광단지,33.25229,126.41284
중문관광단지여미지식물원입구,33.25192,126.41265999999999
중문관광단지입구,33.25586,126.41261
중문동,33.25159,126.42717999999999
중문동주민센터,33.25353,126.433275
중문사거리,33.25164,126.43152
중문초등학교,33.25141,126.42985
중문환승정류장(중문우체국),33.251845,126.423595
중앙로(국민은행),33.51073,126.5239
중앙로(동문시장),33.51168,126.52457
중앙로(중앙성당),33.512,126.52447
중앙로(현대약국),33.51089,126.52421
중앙로터리,33.25285,126.56058
중앙로터리(동),33.25297,126.56135
중앙마을,33.50163,126.5197
중엄리,33.473505,126.37353
중흥/골드클래스아파트,33.252645,126.50212
중흥S클래스아파트,33.47639,126.48214
지경곰,33.552135,126.768365
지경동산,33.492104999999995,126.671655
지명뒤,33.475415,126.608215
지미봉입구,33.495015,126.904315
지방합동청사,33.48984,126.52308
지세못,33.253029999999995,126.46423
진개동산,33.22531,126.24736
진군을리,33.283730000000006,126.364175
진근동,33.404235,126.263765
진동산,33.33316,126.79534
진드르,33.523935,126.60752500000001
진부동,33.288059999999994,126.302795
진우파크빌,33.4461,126.905315
진은동,33.282445,126.730125
진진내,33.26282500000001,126.543825
진평연립입구,33.47054,126.522265
진학농원,33.29988,126.61603500000001
차고지(가상),33.49839,126.51651
차귀포구,33.30898,126.16504
차남동산,33.45259,126.838165
창남거리,33.25625,126.58174
창천리,33.265695,126.371175
창천리남당물동산,33.26169,126.36674500000001
창천초등학교,33.26443,126.37091
처남빌레,33.447919999999996,126.33933
천수동,33.508905,126.542235
천제연폭포,33.25374,126.41925499999999
천지동주민센터,33.24808,126.5617
천지연폭포(종점),33.243109999999994,126.56025
천지연폭포입구,33.241225,126.56139
첨단과기단지입구교학촌아파트,33.4579,126.57153
첨단꿈에그린2단지아파트,33.45245,126.576655
첨단꿈에그린3단지아파트,33.450019999999995,126.57746
첨단로8길,33.44393,126.57202999999998
첨단행복주택,33.45565500000001,126.57564
청소년문화의집,33.250655,126.56455
청소년수련원,33.4158125,126.42888
청수리,33.314027499999995,126.25144
청수리사거리,33.321690000000004,126.24509499999999
청수리웃동네,33.31989,126.24597
청수리평화동,33.30955,126.25933
청수마을회관,33.318225,126.247625
청용사,33.441784999999996,126.33078
청화마을입구,33.45611,126.43017499999999
"청화마을입구,진밭동네",33.45902,126.42688
체오름,33.474145,126.76142999999999
체육공원입구,33.27411,126.608385
초록마을,33.456025000000004,126.4658425
추사유배지,33.2491,126.278965
추자119지역센터,33.956885,126.301315
추자교,33.954105,126.30236500000001
추자면사무소,33.962990000000005,126.29588
추자면자치센터,33.963640000000005,126.29681
추자보건지소,33.96069,126.29592500000001
추자중학교,33.944515,126.326345
추자해변장여관,33.94379,126.32571000000002
축산마을,33.44656,126.4859
축산진흥원입구,33.446884999999995,126.487495
충혼묘지,33.47999,126.56969999999998
충혼묘지광장,33.30751,126.57037
측골,33.267250000000004,126.58330000000001
칠십리음식특화거리,33.2441,126.56914
칠전동,33.297705,126.19453999999999
칡오름,33.28295,126.60777
카카오,33.45126,126.57122
칼호텔,33.248000000000005,126.57805
캐슬렉스골프클럽,33.3382,126.35585
케이티앤지,33.48207,126.48535
켄싱턴리조트악근천,33.23451,126.490625
켄싱턴제주호텔입구,33.250370000000004,126.40992
크라운골프연습장,33.33979,126.8029
큰구릉내,33.486810000000006,126.41448
큰동네,33.489360000000005,126.59662499999999
큰솔동산,33.24741,126.431795
탄산온천,33.250515,126.297785
탐라광장,33.51383,126.52826999999999
탐라교육원,33.42587,126.53277
탐라도뚜리농장,33.502245,126.64215
탐라도서관,33.47755,126.4775
탐라승마장,33.433835,126.71731
탐라장애인종합복지관,33.500125,126.52573000000001
탐라중학교,33.491020000000006,126.54465
탑동입구,33.51558,126.52475
탑동푸른쉼터,33.51656,126.52711
태흥3리,33.29568,126.76083
태흥3리사무소,33.293975,126.758505
태흥목장,33.379540000000006,126.684935
태흥초등학교,33.28635,126.74501
"테디밸리골프앤리조트,헬로키티아일랜드",33.29184,126.35135500000001
테왓동네,33.319,126.24307
토산1리노인회관,33.3294,126.77063
토산1리노인회관앞,33.329015,126.76977
토산1리리사무소,33.32595,126.76588999999998
토산1리리사무소앞,33.32595,126.76573
토산1리송천교,33.3244,126.761375
토산1리운동장,33.33283,126.76894
토산1리운동장입구,33.33267,126.7691
토산관광지구입구,33.307249999999996,126.786615
토산보건소동쪽,33.32748,126.76815
토산보건진료소,33.32648,126.76751000000002
토산초등학교,33.31087,126.77670499999999
토요시장입구,33.22129,126.25192
토평마을회관,33.271225,126.589775
토평반석타운,33.270835000000005,126.59403499999999
토평보목입구,33.25875,126.59062
토평사거리,33.26882,126.58539999999999
토평초등학교,33.268035,126.589715
통물,33.24785,126.5313
트릭아트뮤지엄,33.39949,126.78703499999999
틀라목,33.500865000000005,126.677245
파라다이스호텔입구,33.24749,126.57696
파인힐호텔,33.24117,126.564585
판포리,33.364685,126.19976
판포리상동,33.367665,126.20435
평대,33.528690000000005,126.83915
평대리동동,33.524355,126.84960500000001
평대리사무소,33.528105,126.842795
평대리서동,33.530775000000006,126.83768
평대마장,33.50075,126.81561
평대초등학교,33.52939000000001,126.83893
평생학습관,33.24955,126.558035
평안전문요양원,33.281015,126.58836
평지동,33.28096,126.22646
평지동옹기박물관,33.282295000000005,126.22365500000001
평화동,33.30951,126.25943
평화동회관,33.3072,126.25356
평화로광령1리입구,33.45573,126.44229
평화박물관입구,33.30466,126.25858999999998
평화의마을,33.279610000000005,126.29301
평화통일불사리탑,33.529905,126.63504
폭남동,33.345110000000005,126.773245
폭낭사거리,33.28663,126.74597
표선고등학교,33.33117,126.829815
표선도서관,33.325190000000006,126.83866499999999
표선리사거리,33.3257,126.8335
표선면충혼묘지,33.416169999999994,126.76270500000001
표선생활체육관,33.3532,126.81575
표선오일시장,33.321415,126.830565
표선중학교,33.32826,126.83122
표선청년회의소,33.33715,126.828125
표선초등학교,33.329295,126.835805
표선파출소,33.32385,126.83111666666667
표선허브동산,33.33063,126.81625
표선환승정류장(표선리사무소),33.32528,126.83246
표선환승정류장(표선리제주은행),33.32662,126.83322
표선환승정류장(표선면사무소),33.32654,126.832265
풍력생태길입구,33.433105000000005,126.82414499999999
풍천초등학교,33.347390000000004,126.8506
플레이케이팝박물관,33.250125,126.41379
하가리노인회관,33.45782,126.35072
하가리연못,33.4558,126.34839
하가리오당빌레,33.453255,126.35083499999999
하가리주승골,33.45774,126.35077
하가삼거리,33.4561,126.3484
하가입구,33.4523,126.3442
하귀1리,33.472314999999995,126.41838999999999
하귀2리,33.47876,126.39963
하귀농협경제사업장,33.458155000000005,126.42366000000001
하귀농협장례식장,33.472584999999995,126.42617999999999
하귀리,33.47943,126.395405
하귀반석,33.47768,126.40798999999998
하귀우체국,33.48126,126.404465
하귀초등학교,33.480195,126.401585
하귀하나로마트,33.484719999999996,126.41122
하귀환승정류장(하귀하나로마트),33.485725,126.41190499999999
하귀휴먼시아1단지,33.48353,126.41602499999999
하귀휴먼시아2단지앞,33.48133,126.414765
하귀휴먼시아2단지입구,33.481955,126.414135
하귀휴먼시아입구,33.485725,126.4153
하나로아파트,33.510975,126.58923
하나호텔한국관광공사,33.2502,126.40843
하늘정원,33.513745,126.780185
하덕천,33.50263,126.77111
하도리,33.517849999999996,126.882655
하도리개긋물,33.50179,126.88249
하도리동동,33.51599,126.884345
하도리면수동,33.520835000000005,126.86838499999999
하도리서문동,33.5236125,126.87647999999999
하도리신동,33.52357000000001,126.883805
하도리창흥동,33.508665,126.887205
하도초등학교,33.518010000000004,126.87903
하동복지회관,33.444289999999995,126.29678
하례1리,33.266425,126.62916000000001
하례1리복지회관,33.26905,126.62893
하례1리입구,33.263585,126.626135
하례2리,33.29054333333334,126.60686
하례2리입구,33.30065999999999,126.601835
하례돈야로,33.29395,126.60711
하례환승정류장(하례리입구),33.299989999999994,126.60059000000001
하모2리,33.22146,126.25277
하모3리,33.22158,126.25107
하모3리 축협,33.22531,126.2524
하모체육공원,33.218599999999995,126.25219
하얏트호텔,33.24511,126.40579
하예중동,33.241695,126.38414499999999
하예하동,33.236205,126.37326999999999
하우목동,33.50731,126.95093
하원동,33.2539,126.461135
하원초등학교,33.25332,126.45996
하천리,33.351659999999995,126.83947
하천리마을입구,33.35398000000001,126.823555
하천리몰고랑터,33.35382,126.83679
하천리세골세,33.349415,126.84016500000001
하천리중동,33.347390000000004,126.840585
하천리취락구조,33.3376,126.84278
하천상동회관앞,33.3528,126.8389
하천하동,33.34003,126.84455500000001
하추자보건소,33.946160000000006,126.329835
하효고막곶,33.249075,126.61383000000001
하효마을다목적회관,33.25815,126.61758
하효마을회관,33.2618,126.61758
하효북문,33.266909999999996,126.61741
학원동,33.474845,126.39736
한경면사무소,33.34989,126.183805
한국BMI,33.44903,126.573095
한국국제학교,33.287400000000005,126.28207
한국방송통신대학,33.48672,126.47341000000002
한국병원,33.49992,126.51787999999999
한국오우퍼빌,33.25767999999999,126.57204
한국전력변전소,33.49835,126.537305
한국콘도입구,33.250240000000005,126.41022
한국통신,33.33314,126.3863175
한남교,33.312574999999995,126.69651999999999
한남농장,33.29913,126.6814
한남리사무소,33.31161,126.69593
한남섯동네,33.311205,126.69106
한담동,33.462535,126.312735
한동리,33.537135000000006,126.829515
한동리서동,33.53875,126.82707500000001
한라도서관,33.476005,126.514985
한라도서관입구,33.481226666666664,126.51567
한라병원,33.489535000000004,126.48554
한라산교회,33.273165000000006,126.56833
한라산둘레길,33.328109999999995,126.60586
한라산둘레길(천아숲길입구),33.409425,126.477115
한라생태숲,33.429685,126.596825
한라수목원,33.469875,126.484825
한라용사촌,33.53452,126.796285
한라일보,33.498585000000006,126.519765
한라주택,33.48807,126.4268
한라중학교/부영아파트,33.47887,126.48383
한라초등학교,33.479,126.48629
한림2리,33.41163,126.2676
한림고등학교,33.40107,126.25708333333334
한림공원,33.3918,126.23897
한림농협주유소,33.408635000000004,126.26223
한림발전소,33.401655,126.27108000000001
한림여자중학교,33.410615,126.25971
한림오일시장,33.420655,126.27318
한림주유소,33.416709999999995,126.26483
한림천주교회,33.41745,126.265095
한림체육관,33.408950000000004,126.26727500000001
한림환승정류장(한림리),33.41445,126.263815
한마음근린공원,33.497040000000005,126.54538
한마음병원,33.49597,126.547275
한마음선원입구,33.489149999999995,126.570375
한밭입구,33.251239999999996,126.358115
한수리,33.422055,126.26434499999999
한스빌타운하우스,33.431685,126.40737
한울랜드,33.49923,126.75292999999999
한원리,33.33474,126.19881249999999
한의원,33.962,126.29413500000001
한일베라체,33.494485,126.548455
한장동,33.2890425,126.167615
한전사택,33.940495,126.322805
한지동,33.30911999999999,126.81188
한천동,33.39465,126.2746
한화아파트,33.47902,126.48308
한흘마을입구,33.495695,126.662065
함덕5구,33.533950000000004,126.675945
함덕골,33.24317,126.59808
함덕광명샤인빌앞,33.53823,126.67461000000002
함덕농협주유소,33.5365,126.67492
함덕농협지소,33.542335,126.66433
함덕리(3구),33.541734999999996,126.66617
함덕리(4구),33.539793333333336,126.67406333333334
함덕비석거리,33.54317999999999,126.66196
함덕에덴빌리지,33.53023,126.66508999999999
함덕초등학교,33.53727000000001,126.67103499999999
함덕환승정류장(함덕해수욕장),33.54101,126.66895499999998
항몽유적지,33.452380000000005,126.40842
항몽유적지입구,33.457409999999996,126.41058000000001
항애골,33.270939999999996,126.64079
해녀박물관,33.521765,126.86298
해녀박물관입구,33.521085,126.863805
해병대아파트입구,33.480405,126.49719999999999
해병대제9여단,33.4774,126.499745
해병부대,33.231,126.26273
해아미,33.42949,126.31858
해안,33.458765,126.454195
해안동,33.46275,126.45255
해안동입구,33.462959999999995,126.45207500000001
해안로,33.509265,126.47236
해양맨션,33.53739,126.63999
해양연구소,33.543800000000005,126.65814499999999
해오름아파트,33.4818,126.48638
행원교차로,33.54574,126.8037
행원농공단지,33.54933,126.81424
행원리,33.55315,126.807995
행원목장,33.51767,126.76983
행장디,33.501125,126.56245
향기마을,33.34406,126.789945
향토오일시장,33.26683,126.574325
허물서,33.238635,126.47375
헬스케어타운,33.281095,126.563805
헬스케어타운리조트,33.28596,126.55772
현대산부인과,33.24918,126.5671
현사마을,33.494715,126.44992
협재리,33.397705,126.244965
협재해수욕장,33.394220000000004,126.2409
혜성무지개타운,33.495455,126.54207000000001
혜원정사,33.490415,126.6006
혜정원아가의집,33.516239999999996,126.67776
호근사거리,33.25733,126.52753
호근새마을금고,33.25745,126.52756
혼인지입구,33.41112,126.898945
혼착밭,33.239285,126.47103999999999
홍랑로입구,33.499970000000005,126.52387
홍수암,33.35326,126.22956
화랑마을,33.46494,126.46429499999999
화물청사입구,33.50418,126.50448
화북공업단지,33.51161,126.56547
화북공업지역입구,33.51173,126.56453
화북남문,33.51874,126.56555
화북동마을,33.52352,126.56751
화북서마을,33.522870000000005,126.56287
화북주공아파트,33.52122,126.5753
화북주공아파트입구,33.518905000000004,126.57283000000001
화북중마을,33.52333,126.56472
화북초등학교,33.51766,126.56206499999999
화북초등학교후문,33.52023,126.56319
화북휴먼시아,33.517269999999996,126.57425
화북휴먼시아정문,33.51593,126.576445
화성농장,33.391605,126.88943
화순금모래해수욕장,33.2396,126.33572
화순동취락지구,33.24964,126.33982499999999
화순리,33.24637,126.33197
화순리동하동경로당,33.24038,126.3383
화순리생태탐방로,33.264625,126.33352500000001
화순문화마을,33.252605,126.330105
화순생태탐방로,33.26444,126.33272
화순해안경기안전센터사계출장소,33.226009999999995,126.30018
화순해안경비안전센터사계출장소,33.22527,126.29979
화순환승정류장(안덕농협),33.246585,126.33512999999999
화전마을,33.35172,126.35952499999999
환경시설관리소,33.47993,126.62557000000001
환상숲곶자왈공원,33.321875000000006,126.26343
활오름,33.261269999999996,126.4832
황사평,33.494575,126.56360000000001
황사평성지,33.4866,126.55508499999999
황사평입구,33.49683,126.55474
황세왓동산,33.493044999999995,126.56711
회수동,33.26381000000001,126.444055
회수마을회관,33.263155,126.44469000000001
회수사거리,33.263265000000004,126.44255
회수삼거리,33.261224999999996,126.44232
회천입구,33.489000000000004,126.5984
효돈농협하나로마트,33.260585,126.61761999999999
효돈중학교,33.263555,126.620755
효돈초등학교,33.263665,126.61668
효돈축구공원,33.260595,126.61152
효례교,33.263659999999994,126.62268
효성빌라,33.251760000000004,126.576795
휴애리자연생활공원,33.308234999999996,126.633135
흙담솔사가,33.25878,126.552335
흙통,33.262150000000005,126.58259
흥국사,33.452535,126.37826000000001
흥덕사,33.39908,126.87603
희진주유소,33.377089999999995,126.87384
히귀반석,33.47755,126.40786
